{
  "teams": [
    {
      "tid": 0,
      "cid": 0,
      "did": 0,
      "region": "Boston College",
      "name": "Eagles",
      "abbrev": "BC",
      "pop": 18,
      "city": "Chestnut Hill",
      "state": "MA",
      "latitude": 42.33,
      "longitude": -71.166,
      "imgURL": "http://content.sportslogos.net/logos/30/618/full/x17r48dtcnhsyveh1iyf7rzqc.gif"
    },
    {
      "tid": 1,
      "cid": 0,
      "did": 0,
      "region": "Louisville",
      "name": "Cardinals",
      "abbrev": "UL",
      "pop": 77,
      "city": "Louisville",
      "state": "KY",
      "latitude": 38.25,
      "longitude": -85.766,
      "imgURL": "http://content.sportslogos.net/logos/32/734/full/4672_louisville_cardinals-primary-2007.png"
    },
    {
      "tid": 2,
      "cid": 0,
      "did": 0,
      "region": "Notre Dame",
      "name": "Fighting Irish",
      "abbrev": "ND",
      "pop": 49,
      "city": "South Bend",
      "state": "IN",
      "latitude": 41.672,
      "longitude": -86.255,
      "imgURL": "http://content.sportslogos.net/logos/33/789/full/h4taj4rqfe7eigc0f2llj59xx.png"
    },
    {
      "tid": 3,
      "cid": 0,
      "did": 0,
      "region": "Pittsburgh",
      "name": "Panthers",
      "abbrev": "PITT",
      "pop": 29,
      "city": "Pittsburgh",
      "state": "PA",
      "latitude": 40.439,
      "longitude": -79.976,
      "imgURL": "http://content.sportslogos.net/logos/33/803/full/wrvfcu5gwma4v22cyof6.png"
    },
    {
      "tid": 4,
      "cid": 0,
      "did": 0,
      "region": "Syracuse",
      "name": "Orange",
      "abbrev": "CUSE",
      "pop": 53,
      "city": "Syracuse",
      "state": "NY",
      "latitude": 43.046,
      "longitude": -76.144,
      "imgURL": "http://content.sportslogos.net/logos/34/859/full/lhf2fxwjfmysj71nzmqw.gif"
    },
    {
      "tid": 5,
      "cid": 0,
      "did": 0,
      "region": "Villanova",
      "name": "Wildcats",
      "abbrev": "NOVA",
      "pop": 66,
      "city": "Philadelphia",
      "state": "PA",
      "latitude": 39.95,
      "longitude": -75.166,
      "imgURL": "http://content.sportslogos.net/logos/35/897/full/a28cvg370vfg03yepefh.png"
    },
    {
      "tid": 6,
      "cid": 0,
      "did": 0,
      "region": "Virginia",
      "name": "Cavaliers",
      "abbrev": "UVA",
      "pop": 60,
      "city": "Charlottesville",
      "state": "VA",
      "latitude": 38.03,
      "longitude": -78.478,
      "imgURL": "http://content.sportslogos.net/logos/35/898/full/7135.png"
    },
    {
      "tid": 7,
      "cid": 0,
      "did": 0,
      "region": "Virginia Tech",
      "name": "Hokies",
      "abbrev": "VT",
      "pop": 24,
      "city": "Blacksburg",
      "state": "VA",
      "latitude": 37.23,
      "longitude": -80.417,
      "imgURL": "http://content.sportslogos.net/logos/35/901/full/gabem67h4rb7golayyr7qsole.gif"
    },
    {
      "tid": 8,
      "cid": 0,
      "did": 1,
      "region": "Clemson",
      "name": "Tigers",
      "abbrev": "CLEM",
      "pop": 22,
      "city": "Clemson",
      "state": "SC",
      "latitude": 34.678,
      "longitude": -82.839,
      "imgURL": "http://content.sportslogos.net/logos/30/643/full/2451.png"
    },
    {
      "tid": 9,
      "cid": 0,
      "did": 1,
      "region": "Duke",
      "name": "Blue Devils",
      "abbrev": "DUKE",
      "pop": 83,
      "city": "Durham",
      "state": "NC",
      "latitude": 35.988,
      "longitude": -78.907,
      "imgURL": "http://content.sportslogos.net/logos/31/663/full/2469.png"
    },
    {
      "tid": 10,
      "cid": 0,
      "did": 1,
      "region": "Florida State",
      "name": "Seminoles",
      "abbrev": "FSU",
      "pop": 30,
      "city": "Tallahassee",
      "state": "FL",
      "latitude": 30.442,
      "longitude": -84.298,
      "imgURL": "http://content.sportslogos.net/logos/31/679/full/5984_florida_state_seminoles-primary-2014.png"
    },
    {
      "tid": 11,
      "cid": 0,
      "did": 1,
      "region": "Georgia Tech",
      "name": "Yellow Jackets",
      "abbrev": "GT",
      "pop": 25,
      "city": "Atlanta",
      "state": "GA",
      "latitude": 33.775,
      "longitude": -84.394,
      "imgURL": "http://content.sportslogos.net/logos/31/690/full/2491.gif"
    },
    {
      "tid": 12,
      "cid": 0,
      "did": 1,
      "region": "Miami (FL)",
      "name": "Hurricanes ",
      "abbrev": "CANES",
      "pop": 23,
      "city": "Coral Gables",
      "state": "FL",
      "latitude": 25.75,
      "longitude": -80.271,
      "imgURL": "http://content.sportslogos.net/logos/32/748/full/2848.png"
    },
    {
      "tid": 13,
      "cid": 0,
      "did": 1,
      "region": "North Carolina",
      "name": "Tar Heels",
      "abbrev": "UNC",
      "pop": 84,
      "city": "Chapel Hill",
      "state": "NC",
      "latitude": 35.933,
      "longitude": -79.033,
      "imgURL": "http://content.sportslogos.net/logos/33/775/full/1539_north_carolina_tar_heels-primary-2015.png"
    },
    {
      "tid": 14,
      "cid": 0,
      "did": 1,
      "region": "North Carolina State",
      "name": "Wolfpack",
      "abbrev": "NCST",
      "pop": 56,
      "city": "Raleigh",
      "state": "NC",
      "latitude": 35.786,
      "longitude": -78.682,
      "imgURL": "http://content.sportslogos.net/logos/33/777/full/5907_north_carolina_state_wolfpack-primary-2006.png"
    },
    {
      "tid": 15,
      "cid": 0,
      "did": 1,
      "region": "Wake Forest",
      "name": "Demon Deacons",
      "abbrev": "WAKE",
      "pop": 26,
      "city": "Winston-Salem",
      "state": "NC",
      "latitude": 36.102,
      "longitude": -80.26,
      "imgURL": "http://content.sportslogos.net/logos/35/903/full/6139_wake_forest_demon_deacons-primary-2007.png"
    },
    {
      "tid": 16,
      "cid": 1,
      "did": 2,
      "region": "Butler",
      "name": "Bulldogs",
      "abbrev": "BUTL",
      "pop": 36,
      "city": "Indianapolis",
      "state": "IN",
      "latitude": 39.839,
      "longitude": -86.171,
      "imgURL": "http://content.sportslogos.net/logos/30/625/full/7487_butler_bulldogs-primary-2015.png"
    },
    {
      "tid": 17,
      "cid": 1,
      "did": 2,
      "region": "Maryland",
      "name": "Terrapins",
      "abbrev": "MD",
      "pop": 50,
      "city": "College Park",
      "state": "MD",
      "latitude": 38.997,
      "longitude": -76.927,
      "imgURL": "http://content.sportslogos.net/logos/32/743/full/5444_maryland_terrapins-primary-2012.png"
    },
    {
      "tid": 18,
      "cid": 1,
      "did": 2,
      "region": "Michigan",
      "name": "Wolverines",
      "abbrev": "MICH",
      "pop": 48,
      "city": "Ann Arbor",
      "state": "MI",
      "latitude": 42.281,
      "longitude": -83.748,
      "imgURL": "http://content.sportslogos.net/logos/32/750/full/7501_michigan_wolverines-primary-2012.png"
    },
    {
      "tid": 19,
      "cid": 1,
      "did": 2,
      "region": "Michigan State",
      "name": "Spartans",
      "abbrev": "MSU",
      "pop": 75,
      "city": "East Lansing",
      "state": "MI",
      "latitude": 42.734,
      "longitude": -84.48,
      "imgURL": "http://content.sportslogos.net/logos/32/751/full/1597_michigan_state_spartans-primary-1983.png"
    },
    {
      "tid": 20,
      "cid": 1,
      "did": 2,
      "region": "Ohio State",
      "name": "Buckeyes",
      "abbrev": "OSU",
      "pop": 49,
      "city": "Columbus",
      "state": "OH",
      "latitude": 39.983,
      "longitude": -82.983,
      "imgURL": "http://content.sportslogos.net/logos/33/791/full/7645_ohio_state_buckeyes-primary-2013.png"
    },
    {
      "tid": 21,
      "cid": 1,
      "did": 2,
      "region": "Penn State",
      "name": "Nittany Lions",
      "abbrev": "PSU",
      "pop": 18,
      "city": "University Park",
      "state": "PA",
      "latitude": 40.796,
      "longitude": -77.862,
      "imgURL": "http://content.sportslogos.net/logos/33/801/full/6g3sx3a2zxgt5z2vb10g.gif"
    },
    {
      "tid": 22,
      "cid": 1,
      "did": 2,
      "region": "Connecticut",
      "name": "Huskies",
      "abbrev": "UCONN",
      "pop": 51,
      "city": "Storrs",
      "state": "CT",
      "latitude": 41.807,
      "longitude": -72.252,
      "imgURL": "http://content.sportslogos.net/logos/35/884/full/9122_uconn_huskies-primary-2013.png"
    },
    {
      "tid": 23,
      "cid": 1,
      "did": 2,
      "region": "Xavier",
      "name": "Musketeers",
      "abbrev": "XAV",
      "pop": 41,
      "city": "Cincinnati",
      "state": "OH",
      "latitude": 39.148,
      "longitude": -84.477,
      "imgURL": "http://content.sportslogos.net/logos/35/919/full/xgodx5ewp41q2fp38jsy.gif"
    },
    {
      "tid": 24,
      "cid": 1,
      "did": 3,
      "region": "Illinois",
      "name": "Fighting Illini",
      "abbrev": "ILL",
      "pop": 47,
      "city": "Champaign",
      "state": "IL",
      "latitude": 40.115,
      "longitude": -88.272,
      "imgURL": "http://content.sportslogos.net/logos/32/706/full/8359_illinois_fighting_illini-primary-2014.png"
    },
    {
      "tid": 25,
      "cid": 1,
      "did": 3,
      "region": "Indiana",
      "name": "Hoosiers",
      "abbrev": "IND",
      "pop": 72,
      "city": "Bloomington",
      "state": "IN",
      "latitude": 39.162,
      "longitude": -86.529,
      "imgURL": "http://content.sportslogos.net/logos/32/709/full/2213_indiana_hoosiers-primary-2002.png"
    },
    {
      "tid": 26,
      "cid": 1,
      "did": 3,
      "region": "Iowa",
      "name": "Hawkeyes",
      "abbrev": "IOWA",
      "pop": 49,
      "city": "Iowa City",
      "state": "IA",
      "latitude": 41.666,
      "longitude": -91.533,
      "imgURL": "http://content.sportslogos.net/logos/32/712/full/iu01050mxpzmj4zqegb0vvhgu.png"
    },
    {
      "tid": 27,
      "cid": 1,
      "did": 3,
      "region": "Minnesota",
      "name": "Golden Gophers",
      "abbrev": "MINN",
      "pop": 38,
      "city": "Minneapolis",
      "state": "MN",
      "latitude": 44.98,
      "longitude": -93.264,
      "imgURL": "http://content.sportslogos.net/logos/32/753/full/r8cdw98hpgz0sevha7ejthble.png"
    },
    {
      "tid": 28,
      "cid": 1,
      "did": 3,
      "region": "Nebraska",
      "name": "Cornhuskers",
      "abbrev": "NEB",
      "pop": 22,
      "city": "Lincoln",
      "state": "NE",
      "latitude": 40.81,
      "longitude": -96.68,
      "imgURL": "http://content.sportslogos.net/logos/33/766/full/u5a0z147qunbzxwnec8ef7bkl.png"
    },
    {
      "tid": 29,
      "cid": 1,
      "did": 3,
      "region": "Northwestern",
      "name": "Wildcats",
      "abbrev": "NW",
      "pop": 15,
      "city": "Evanston",
      "state": "IL",
      "latitude": 42.046,
      "longitude": -87.694,
      "imgURL": "http://content.sportslogos.net/logos/33/787/full/2889.gif"
    },
    {
      "tid": 30,
      "cid": 1,
      "did": 3,
      "region": "Purdue",
      "name": "Boilermakers",
      "abbrev": "PUR",
      "pop": 52,
      "city": "West Lafayette",
      "state": "IN",
      "latitude": 40.441,
      "longitude": -86.912,
      "imgURL": "http://content.sportslogos.net/logos/33/809/full/6644_purdue_boilermakers-primary-2012.png"
    },
    {
      "tid": 31,
      "cid": 1,
      "did": 3,
      "region": "Wisconsin",
      "name": "Badgers",
      "abbrev": "WISC",
      "pop": 70,
      "city": "Madison",
      "state": "WI",
      "latitude": 43.066,
      "longitude": -89.4,
      "imgURL": "http://content.sportslogos.net/logos/35/914/full/ydl01hfj8hw4p1mbg1zd.png"
    },
    {
      "tid": 32,
      "cid": 2,
      "did": 4,
      "region": "Auburn",
      "name": "Tigers",
      "abbrev": "AUB",
      "pop": 15,
      "city": "Auburn",
      "state": "AL",
      "latitude": 32.597,
      "longitude": -85.48,
      "imgURL": "http://content.sportslogos.net/logos/30/610/full/1145_auburn_tigers-primary-1968.png"
    },
    {
      "tid": 33,
      "cid": 2,
      "did": 4,
      "region": "Cincinnati",
      "name": "Bearcats",
      "abbrev": "CIN",
      "pop": 53,
      "city": "Cincinnati",
      "state": "OH",
      "latitude": 39.132,
      "longitude": -84.515,
      "imgURL": "http://content.sportslogos.net/logos/30/642/full/7482.png"
    },
    {
      "tid": 34,
      "cid": 2,
      "did": 4,
      "region": "Florida",
      "name": "Gators",
      "abbrev": "FLA",
      "pop": 50,
      "city": "Gainesville",
      "state": "FL",
      "latitude": 29.652,
      "longitude": -82.325,
      "imgURL": "http://content.sportslogos.net/logos/31/675/full/7076_florida_gators-primary-2013.png"
    },
    {
      "tid": 35,
      "cid": 2,
      "did": 4,
      "region": "Georgetown",
      "name": "Hoyas",
      "abbrev": "HOYAS",
      "pop": 47,
      "city": "Washington",
      "state": "DC",
      "latitude": 38.904,
      "longitude": -77.016,
      "imgURL": "http://content.sportslogos.net/logos/31/686/full/41oxa3jgd3ht8c7a6zf2hbf99.png"
    },
    {
      "tid": 36,
      "cid": 2,
      "did": 4,
      "region": "Georgia",
      "name": "Bulldogs",
      "abbrev": "UGA",
      "pop": 29,
      "city": "Athens",
      "state": "GA",
      "latitude": 33.95,
      "longitude": -83.383,
      "imgURL": "http://content.sportslogos.net/logos/31/687/full/hr85j3g1duiqf59eiep9bvnsd.png"
    },
    {
      "tid": 37,
      "cid": 2,
      "did": 4,
      "region": "Kentucky",
      "name": "Wildcats",
      "abbrev": "UK",
      "pop": 85,
      "city": "Lexington",
      "state": "KY",
      "latitude": 38.029,
      "longitude": -84.494,
      "imgURL": "http://content.sportslogos.net/logos/32/721/full/7832_kentucky_wildcats-primary-2016.png"
    },
    {
      "tid": 38,
      "cid": 2,
      "did": 4,
      "region": "South Carolina",
      "name": "Gamecocks",
      "abbrev": "SCAR",
      "pop": 31,
      "city": "Columbia",
      "state": "SC",
      "latitude": 34.029,
      "longitude": -80.896,
      "imgURL": "http://content.sportslogos.net/logos/34/834/full/5gje9m4b1shmcd442rkpxkeb8.png"
    },
    {
      "tid": 39,
      "cid": 2,
      "did": 4,
      "region": "Tennessee",
      "name": "Volunteers",
      "abbrev": "TENN",
      "pop": 30,
      "city": "Knoxville",
      "state": "TN",
      "latitude": 35.972,
      "longitude": -83.942,
      "imgURL": "http://content.sportslogos.net/logos/34/861/full/6626_tennessee_volunteers-primary-2015.png"
    },
    {
      "tid": 40,
      "cid": 2,
      "did": 5,
      "region": "Alabama",
      "name": "Crimson Tide",
      "abbrev": "BAMA",
      "pop": 33,
      "city": "Tuscaloosa",
      "state": "AL",
      "latitude": 33.206,
      "longitude": -87.534,
      "imgURL": "http://content.sportslogos.net/logos/30/597/full/d8nqfhswwqiht1dc4y5p0dmeh.png"
    },
    {
      "tid": 41,
      "cid": 2,
      "did": 5,
      "region": "Arkansas",
      "name": "Razorbacks",
      "abbrev": "ARK",
      "pop": 50,
      "city": "Fayetteville",
      "state": "AR",
      "latitude": 36.076,
      "longitude": -94.16,
      "imgURL": "http://content.sportslogos.net/logos/30/606/full/9220_arkansas_razorbacks-primary-2014.png"
    },
    {
      "tid": 42,
      "cid": 2,
      "did": 5,
      "region": "Louisiana State",
      "name": "Tigers",
      "abbrev": "LSU",
      "pop": 35,
      "city": "Baton Rouge",
      "state": "LA",
      "latitude": 30.45,
      "longitude": -91.14,
      "imgURL": "http://content.sportslogos.net/logos/32/723/full/9627_lsu_tigers-primary-2014.png"
    },
    {
      "tid": 43,
      "cid": 2,
      "did": 5,
      "region": "Mississippi",
      "name": "Rebels",
      "abbrev": "MISS",
      "pop": 24,
      "city": "Oxford",
      "state": "MS",
      "latitude": 34.359,
      "longitude": -89.526,
      "imgURL": "http://content.sportslogos.net/logos/32/754/full/1976_mississippi_rebels-primary-1996.png"
    },
    {
      "tid": 44,
      "cid": 2,
      "did": 5,
      "region": "Mississippi State",
      "name": "Bulldogs",
      "abbrev": "MSST",
      "pop": 16,
      "city": "Starkville",
      "state": "MS",
      "latitude": 33.462,
      "longitude": -88.82,
      "imgURL": "http://content.sportslogos.net/logos/32/755/full/91xsfe9nvvedeghyqi4sx161k.png"
    },
    {
      "tid": 45,
      "cid": 2,
      "did": 5,
      "region": "Missouri",
      "name": "Tigers",
      "abbrev": "MIZZ",
      "pop": 25,
      "city": "Columbia",
      "state": "MO",
      "latitude": 38.951,
      "longitude": -92.328,
      "imgURL": "http://content.sportslogos.net/logos/32/757/full/70yox0z4pkkwwedhxgo92kp9f.png"
    },
    {
      "tid": 46,
      "cid": 2,
      "did": 5,
      "region": "Texas A&M",
      "name": "Aggies",
      "abbrev": "TAMU",
      "pop": 24,
      "city": "College Station",
      "state": "TX",
      "latitude": 30.601,
      "longitude": -96.314,
      "imgURL": "http://content.sportslogos.net/logos/34/866/full/7417_texas_a&m_aggies-primary-2007.png"
    },
    {
      "tid": 47,
      "cid": 2,
      "did": 5,
      "region": "Vanderbilt",
      "name": "Commodores",
      "abbrev": "VANDY",
      "pop": 35,
      "city": "Nashville",
      "state": "TN",
      "latitude": 36.166,
      "longitude": -86.783,
      "imgURL": "http://content.sportslogos.net/logos/35/895/full/oz59klw60uzer5pralxhznrl1.png"
    },
    {
      "tid": 48,
      "cid": 3,
      "did": 6,
      "region": "Colorado",
      "name": "Buffaloes",
      "abbrev": "COLO",
      "pop": 26,
      "city": "Boulder",
      "state": "CO",
      "latitude": 40.027,
      "longitude": -105.251,
      "imgURL": "http://content.sportslogos.net/logos/30/647/full/7489.png"
    },
    {
      "tid": 49,
      "cid": 3,
      "did": 6,
      "region": "Colorado State",
      "name": "Rams",
      "abbrev": "COLOST",
      "pop": 20,
      "city": "Fort Collins",
      "state": "CO",
      "latitude": 40.559,
      "longitude": -105.078,
      "imgURL": "http://content.sportslogos.net/logos/30/648/full/1979_colorado_state_rams-primary-2015.png"
    },
    {
      "tid": 50,
      "cid": 3,
      "did": 6,
      "region": "Creighton",
      "name": "Blue Jays",
      "abbrev": "CREI",
      "pop": 25,
      "city": "Omaha",
      "state": "NE",
      "latitude": 41.264,
      "longitude": -95.946,
      "imgURL": "http://content.sportslogos.net/logos/30/652/full/2796_creighton_blue_jays-primary-2013.png"
    },
    {
      "tid": 51,
      "cid": 3,
      "did": 6,
      "region": "Oregon State",
      "name": "Beavers",
      "abbrev": "OREST",
      "pop": 25,
      "city": "Corvallis",
      "state": "OR",
      "latitude": 44.566,
      "longitude": -123.283,
      "imgURL": "http://content.sportslogos.net/logos/33/798/full/1357_oregon_state_beavers-primary-2013.png"
    },
    {
      "tid": 52,
      "cid": 3,
      "did": 6,
      "region": "Utah",
      "name": "Utes",
      "abbrev": "Utah",
      "pop": 47,
      "city": "Salt Lake City",
      "state": "UT",
      "latitude": 40.765,
      "longitude": -111.842,
      "imgURL": "http://content.sportslogos.net/logos/35/892/full/f59mntuxy6z31v0gapgueoyg2.png"
    },
    {
      "tid": 53,
      "cid": 3,
      "did": 6,
      "region": "Washington",
      "name": "Huskies",
      "abbrev": "WASH",
      "pop": 28,
      "city": "Seattle",
      "state": "WA",
      "latitude": 47.609,
      "longitude": -122.333,
      "imgURL": "http://content.sportslogos.net/logos/35/904/full/yookgal4j29r36rx6fz3jug2p.png"
    },
    {
      "tid": 54,
      "cid": 3,
      "did": 6,
      "region": "Gonzaga",
      "name": "Bulldogs",
      "abbrev": "GONZ",
      "pop": 51,
      "city": "Spokane",
      "state": "WA",
      "latitude": 47.658,
      "longitude": -117.425,
      "imgURL": "http://content.sportslogos.net/logos/31/691/full/pxl1fzxrw8lbt04ci2mo4kk0p.png"
    },
    {
      "tid": 55,
      "cid": 3,
      "did": 6,
      "region": "Wyoming",
      "name": "Cowboys",
      "abbrev": "WYO",
      "pop": 21,
      "city": "Laramie",
      "state": "WY",
      "latitude": 41.316,
      "longitude": -105.583,
      "imgURL": "http://content.sportslogos.net/logos/35/918/full/hub2luegxli9ec81hx65b50hg.png"
    },
    {
      "tid": 56,
      "cid": 3,
      "did": 7,
      "region": "Arizona",
      "name": "Wildcats",
      "abbrev": "ARIZ",
      "pop": 74,
      "city": "Tucson",
      "state": "AZ",
      "latitude": 32.221,
      "longitude": -110.926,
      "imgURL": "http://content.sportslogos.net/logos/30/603/full/2416.png"
    },
    {
      "tid": 57,
      "cid": 3,
      "did": 7,
      "region": "Arizona State",
      "name": "Sun Devils",
      "abbrev": "ASU",
      "pop": 26,
      "city": "Tempe",
      "state": "AZ",
      "latitude": 33.429,
      "longitude": -111.943,
      "imgURL": "http://content.sportslogos.net/logos/30/604/full/6563_arizona_state_sun_devils-primary-2012.png"
    },
    {
      "tid": 58,
      "cid": 3,
      "did": 7,
      "region": "California",
      "name": "Golden Bears",
      "abbrev": "CAL",
      "pop": 29,
      "city": "Berkeley",
      "state": "CA",
      "latitude": 37.871,
      "longitude": -122.272,
      "imgURL": "http://content.sportslogos.net/logos/30/630/full/7456.png"
    },
    {
      "tid": 59,
      "cid": 3,
      "did": 7,
      "region": "Oregon",
      "name": "Ducks",
      "abbrev": "ORE",
      "pop": 34,
      "city": "Eugene",
      "state": "OR",
      "latitude": 44.051,
      "longitude": -123.086,
      "imgURL": "http://content.sportslogos.net/logos/33/797/full/by8dfvb6j89hs5nrvlb1ibx5e.png"
    },
    {
      "tid": 60,
      "cid": 3,
      "did": 7,
      "region": "Stanford",
      "name": "Cardinal",
      "abbrev": "STAN",
      "pop": 38,
      "city": "Stanford",
      "state": "CA",
      "latitude": 37.43,
      "longitude": -122.17,
      "imgURL": "http://content.sportslogos.net/logos/34/854/full/4803_stanford_cardinal-primary-2014.png"
    },
    {
      "tid": 61,
      "cid": 3,
      "did": 7,
      "region": "Brigham Young",
      "name": "Cougars",
      "abbrev": "BYU",
      "pop": 46,
      "city": "Provo",
      "state": "UT",
      "latitude": 40.244,
      "longitude": -111.66,
      "imgURL": "http://content.sportslogos.net/logos/30/622/full/t2k7w98wp67rswqopr1pra06h.png"
    },
    {
      "tid": 62,
      "cid": 3,
      "did": 7,
      "region": "UCLA",
      "name": "Bruins",
      "abbrev": "UCLA",
      "pop": 82,
      "city": "Los Angeles",
      "state": "CA",
      "latitude": 34.05,
      "longitude": -118.25,
      "imgURL": "http://content.sportslogos.net/logos/35/882/full/f14dh4p8ot36v1exxoazhf03a.png"
    },
    {
      "tid": 63,
      "cid": 3,
      "did": 7,
      "region": "USC",
      "name": "Trojans",
      "abbrev": "USC",
      "pop": 21,
      "city": "Los Angeles",
      "state": "CA",
      "latitude": 34.05,
      "longitude": -118.25,
      "imgURL": "http://content.sportslogos.net/logos/34/840/full/9831_southern_california_trojans-primary-1993.png"
    },
    {
      "tid": 64,
      "cid": 4,
      "did": 8,
      "region": "Marquette",
      "name": "Golden Eagles",
      "abbrev": "MARQ",
      "pop": 35,
      "city": "Milwaukee",
      "state": "WI",
      "latitude": 43.038,
      "longitude": -87.928,
      "imgURL": "http://content.sportslogos.net/logos/32/741/full/lk47sf36h6g3y141mktt.png"
    },
    {
      "tid": 65,
      "cid": 4,
      "did": 8,
      "region": "Iowa State",
      "name": "Cyclones",
      "abbrev": "IOWAST",
      "pop": 43,
      "city": "Ames",
      "state": "IA",
      "latitude": 42.034,
      "longitude": -93.62,
      "imgURL": "http://content.sportslogos.net/logos/32/713/full/4612_iowa_state_cyclones-primary-2008.png"
    },
    {
      "tid": 66,
      "cid": 4,
      "did": 8,
      "region": "Kansas",
      "name": "Jayhawks",
      "abbrev": "KU",
      "pop": 81,
      "city": "Lawrence",
      "state": "KS",
      "latitude": 38.971,
      "longitude": -95.235,
      "imgURL": "http://content.sportslogos.net/logos/32/718/full/t96oee4doe8n2oxaft7f.png"
    },
    {
      "tid": 67,
      "cid": 4,
      "did": 8,
      "region": "Kansas State",
      "name": "Wildcats",
      "abbrev": "KSU",
      "pop": 39,
      "city": "Manhattan",
      "state": "KS",
      "latitude": 39.191,
      "longitude": -96.591,
      "imgURL": "http://content.sportslogos.net/logos/32/719/full/2508.png"
    },
    {
      "tid": 68,
      "cid": 4,
      "did": 8,
      "region": "VCU",
      "name": "Rams",
      "abbrev": "VCU",
      "pop": 38,
      "city": "Richmond",
      "state": "VA",
      "latitude": 37.533,
      "longitude": -77.466,
      "imgURL": "http://content.sportslogos.net/logos/35/899/full/7379_virginia_commonwealth_rams-primary-2014.png"
    },
    {
      "tid": 69,
      "cid": 4,
      "did": 8,
      "region": "Wichita State",
      "name": "Shockers",
      "abbrev": "WICH",
      "pop": 45,
      "city": "Wichita",
      "state": "KS",
      "latitude": 37.719,
      "longitude": -97.293,
      "imgURL": "http://content.sportslogos.net/logos/35/911/full/4550_wichita_state_shockers-primary-2010.png"
    },
    {
      "tid": 70,
      "cid": 4,
      "did": 8,
      "region": "West Virginia",
      "name": "Mountaineers",
      "abbrev": "WVU",
      "pop": 47,
      "city": "Morgantown",
      "state": "WV",
      "latitude": 39.633,
      "longitude": -79.95,
      "imgURL": "http://content.sportslogos.net/logos/35/907/full/2650_west_virginia_mountaineers-primary-1980.png"
    },
    {
      "tid": 71,
      "cid": 4,
      "did": 8,
      "region": "Western Kentucky",
      "name": "Hilltoppers",
      "abbrev": "WKYU",
      "pop": 21,
      "city": "Bowling Green",
      "state": "KY",
      "latitude": 36.981,
      "longitude": -86.444,
      "imgURL": "http://content.sportslogos.net/logos/35/909/full/45vahaduw2h85i3nqehdgn7xq.png"
    },
    {
      "tid": 72,
      "cid": 4,
      "did": 9,
      "region": "Baylor",
      "name": "Bears",
      "abbrev": "BAYL",
      "pop": 33,
      "city": "Waco",
      "state": "TX",
      "latitude": 31.551,
      "longitude": -97.155,
      "imgURL": "http://content.sportslogos.net/logos/30/613/full/7369.png"
    },
    {
      "tid": 73,
      "cid": 4,
      "did": 9,
      "region": "Memphis",
      "name": "Tigers",
      "abbrev": "MEMP",
      "pop": 36,
      "city": "Memphis",
      "state": "TN",
      "latitude": 35.119,
      "longitude": -89.937,
      "imgURL": "http://content.sportslogos.net/logos/32/746/full/pep4eclqlq0phflhok70y3u41.gif"
    },
    {
      "tid": 74,
      "cid": 4,
      "did": 9,
      "region": "Oklahoma",
      "name": "Sooners",
      "abbrev": "OKLA",
      "pop": 62,
      "city": "Norman",
      "state": "OK",
      "latitude": 35.22,
      "longitude": -97.44,
      "imgURL": "http://content.sportslogos.net/logos/33/793/full/f9hclkzyftlynvgb1wgf.gif"
    },
    {
      "tid": 75,
      "cid": 4,
      "did": 9,
      "region": "Oklahoma State",
      "name": "Cowboys",
      "abbrev": "OKLAST",
      "pop": 50,
      "city": "Stillwater",
      "state": "OK",
      "latitude": 36.115,
      "longitude": -97.058,
      "imgURL": "http://content.sportslogos.net/logos/33/794/full/3pjgog0vs8brehugdqzh.png"
    },
    {
      "tid": 76,
      "cid": 4,
      "did": 9,
      "region": "SMU",
      "name": "Mustangs",
      "abbrev": "SMU",
      "pop": 28,
      "city": "University Park",
      "state": "TX",
      "latitude": 32.841,
      "longitude": -96.784,
      "imgURL": "http://content.sportslogos.net/logos/34/842/full/3338_southern_methodist_mustangs-primary-2008.png"
    },
    {
      "tid": 77,
      "cid": 4,
      "did": 9,
      "region": "TCU",
      "name": "Horned Frogs",
      "abbrev": "TCU",
      "pop": 20,
      "city": "Fort Worth",
      "state": "TX",
      "latitude": 32.757,
      "longitude": -97.333,
      "imgURL": "http://content.sportslogos.net/logos/34/868/full/2658.png"
    },
    {
      "tid": 78,
      "cid": 4,
      "did": 9,
      "region": "Texas",
      "name": "Longhorns",
      "abbrev": "TEXAS",
      "pop": 46,
      "city": "Austin",
      "state": "TX",
      "latitude": 30.25,
      "longitude": -97.75,
      "imgURL": "http://content.sportslogos.net/logos/34/865/full/5o2wuto6hq2592hhy9e4prm6e.gif"
    },
    {
      "tid": 79,
      "cid": 4,
      "did": 9,
      "region": "Texas Tech",
      "name": "Red Raiders",
      "abbrev": "TT",
      "pop": 17,
      "city": "Lubbock",
      "state": "TX",
      "latitude": 33.566,
      "longitude": -101.883,
      "imgURL": "http://content.sportslogos.net/logos/34/870/full/4661.gif"
    }
  ]
}